line_cd,company_cd,line_name,line_name_k,line_name_h,line_color_c,line_color_t,line_type,lon,lat,zoom,e_status,e_sort
1001,3,中央新幹線,チュウオウシンカンセン,中央新幹線,,,,137.49389648438,35.411438052435,8,1,1001
1002,3,東海道新幹線,トウカイドウシンカンセン,東海道新幹線,,,,137.72148868199,35.144121935483,7,0,1002
1003,4,山陽新幹線,サンヨウシンカンセン,山陽新幹線,,,,133.14789611678,34.419337699534,7,0,1003
1004,2,東北新幹線,トウホクシンカンセン,東北新幹線,,,,140.76319219429,38.274266939284,7,0,1004
1005,2,上越新幹線,ジョウエツシンカンセン,上越新幹線,,,,139.12148795052,36.798564726932,8,0,1005
1006,2,上越新幹線(ガーラ湯沢支線),ジョウエツシンカンセン,上越新幹線(ガーラ湯沢支線),,,,138.8032503783,36.942882112443,14,0,1006
1007,2,山形新幹線,ヤマガタシンカンセン,山形新幹線,,,,140.16847776151,37.588208809852,8,0,1007
1008,2,秋田新幹線,アキタシンカンセン,秋田新幹線,,,,140.36225377378,37.757288952945,7,0,1008
1009,2,北陸新幹線,ホクリクシンカンセン,北陸新幹線,,,,138.03569767624,36.185981373986,7,0,1009
1010,6,九州新幹線,キュウシュウシンカンセン,九州新幹線,,,,130.57682379427,32.794280023118,8,0,1010
1011,1,北海道新幹線,ホッカイドウシンカンセン,北海道新幹線,,,,140.64422607422,42.094146370923,7,0,1011
1012,6,西九州新幹線,ニシキュウシュウシンカンセン,西九州新幹線,,,,130.0229,33.196289,9,0,1012
11101,1,JR函館本線(函館～長万部),ハコダテホンセン,JR函館本線(函館～長万部),,,,140.48336967554,42.239814112315,9,0,11101
11102,1,JR函館本線(長万部～小樽),ハコダテホンセン,JR函館本線(長万部～小樽),,,,140.64288780798,42.919910231258,9,0,11102
11103,1,JR函館本線(小樽～旭川),ハコダテホンセン,JR函館本線(小樽～旭川),,,,141.69791081566,43.415097397169,9,0,11103
11104,1,JR室蘭本線(長万部・室蘭～苫小牧),ムロランホンセン,JR室蘭本線(長万部・室蘭～苫小牧),,,,141.00639370749,42.570716742881,9,0,11104
11105,1,JR室蘭本線(苫小牧～岩見沢),ムロランホンセン,JR室蘭本線(苫小牧～岩見沢),,,,141.74449907924,42.938417143618,10,0,11105
11106,1,JR根室本線(滝川～富良野),ネムロホンセン,JR根室本線(滝川～富良野),,,,142.15,43.5,10,0,11106
11107,1,JR根室本線(新得～釧路),ネムロホンセン,JR根室本線(新得～釧路),,,,143.56474408569,42.965674701143,9,0,11107
11108,1,花咲線,ハナサキセン,JR根室本線(釧路～根室),,,,145.06428821168,43.127554624235,9,0,11108
11109,1,JR千歳線,チトセセン,JR千歳線,,,,141.56756876161,42.88585086761,10,0,11109
11110,1,JR石勝線,セキショウセン,JR石勝線,,,,142.12081034323,42.977609672951,9,0,11110
11111,1,JR日高本線,ヒダカホンセン,JR日高本線,,,,142.18922815,42.43948997731,9,0,11111
11112,1,JR札沼線,サッショウセン,JR札沼線,,,,141.65751006094,43.330448776432,10,0,11112
11113,1,JR留萌本線,ルモイホンセン,JR留萌本線,,,,141.76379195252,43.847331167088,10,0,11113
11114,1,JR富良野線,フラノセン,JR富良野線,,,,142.42933338108,43.609838391366,10,0,11114
11115,1,JR宗谷本線,ソウヤホンセン,JR宗谷本線,,,,142.22561395814,44.658729695622,8,0,11115
11116,1,JR石北本線,セキホクホンセン,JR石北本線,,,,143.36294609598,43.961387698578,8,0,11116
11117,1,JR釧網本線,センモウホンセン,JR釧網本線,,,,144.43376556585,43.523739013019,9,0,11117
11118,1,JR海峡線,カイキョウセン,JR海峡線,,,,140.32904703906,41.366574565662,9,0,11118
11119,1,JR江差線,エサシセン,JR江差線,,,,140.4168208244,41.775381897709,10,2,11119
11201,2,JR東北本線(八戸～青森),トウホクホンセン,JR東北本線(八戸～青森),,,,141.14722775977,40.697918524408,10,2,11201
11202,2,JR奥羽本線(新庄～青森),オウウホンセン,JR奥羽本線(新庄～青森),,,,140.44271734754,39.922270662794,8,0,11202
11231,2,JR東北本線(黒磯～利府・盛岡),トウホクホンセン,JR東北本線(黒磯～利府・盛岡),,,,140.89812487013,38.461424036781,8,0,11202
11203,2,はまなすベイライン大湊線,ハマナスベイラインオオミナトセン,JR大湊線,,,,141.23418887464,41.077048328671,10,0,11203
11204,2,JR五能線,ゴノウセン,JR五能線,,,,140.15359998565,40.622488236236,9,0,11204
11205,2,JR津軽線,ツガルセン,JR津軽線,,,,140.63796429123,40.997248975384,10,0,11205
11206,2,JR八戸線,ハチノヘセン,JR八戸線,,,,141.70193442266,40.402643082498,10,0,11206
11207,2,JR岩泉線,イワイズミセン,JR岩泉線,,,,141.71109069292,39.752566661875,11,2,11207
11208,2,ドラゴンレール大船渡線,ドラゴンレールオオフナトセン,JR大船渡線,,,,141.47242982203,38.96164068758,10,0,11208
11209,2,銀河ドリームライン釜石線,ギンガドリームラインカマイシセン,JR釜石線,,,,141.52791235222,39.326364547483,10,0,11209
11210,2,JR北上線,キタカミセン,JR北上線,,,,140.84662392256,39.304718789615,10,0,11210
11211,2,JR田沢湖線,タザワコセン,JR田沢湖線,,,,140.76856720416,39.693448497696,10,0,11211
11212,2,十和田八幡平四季彩ライン,トワダハチマンタイシキサイライン,JR花輪線,,,,140.84534883051,40.133731429354,10,0,11212
11213,2,JR山田線,ヤマダセン,JR山田線,,,,141.66678736172,39.596929215682,9,0,11213
11214,2,JR羽越本線,ウエツホンセン,JR羽越本線,,,,139.76178034192,38.732941172603,8,0,11214
11215,2,JR男鹿線,オガセン,JR男鹿線,,,,139.95867900532,39.892399877362,11,0,11215
11216,2,山形線,ヤマガタセン,JR奥羽本線(福島～新庄),,,,140.28335367601,38.307715360015,9,0,11216
11217,2,JR仙山線,センザンセン,JR仙山線,,,,140.59961861488,38.314700346769,10,0,11217
11218,2,フルーツライン左沢線,フルーツラインアテラザワセン,JR左沢線,,,,140.28080951726,38.335650729484,12,0,11218
11219,2,JR米坂線,ヨネサカセン,JR米坂線,,,,139.77035691875,38.044983973857,10,0,11219
11220,2,奥の細道最上川ライン,オクノホソミチモガミガワライン,JR陸羽西線,,,,140.09618463594,38.755341242289,10,0,11220
11221,2,奥の細道湯けむりライン,オクノホソミチユケムリライン,JR陸羽東線,,,,140.68130433847,38.730039719484,10,0,11221
11222,2,JR仙石線,センセキセン,JR仙石線,,,,141.07264180992,38.36634215832,11,0,11222
11223,2,JR石巻線,イシノマキセン,JR石巻線,,,,141.25229917969,38.486868490276,11,0,11223
11224,2,JR気仙沼線,ケセンヌマセン,JR気仙沼線,,,,141.46445757915,38.696179754212,10,0,11224
11225,2,JR磐越西線(郡山～会津若松),バンエツサイセン,JR磐越西線(郡山～会津若松),,,,140.13079052058,37.517733926432,10,0,11225
11226,2,森と水とロマンの鉄道,モリトミズトロマンノテツドウ,JR磐越西線,,,,139.121445,37.800383,9,0,11226
11227,2,JR只見線,タダミセン,JR只見線,,,,139.44780738878,37.391764617317,9,0,11227
11228,2,ゆうゆうあぶくまライン,ユウユウアブクマライン,JR磐越東線,,,,140.64261227539,37.269777239001,10,0,11228
11229,2,JR常磐線(取手～いわき),ジョウバンセン,JR常磐線(取手～いわき),,,,140.51887435257,36.519004059221,9,0,11229
11230,2,JR常磐線(いわき～仙台),ジョウバンセン,JR常磐線(いわき～仙台),,,,140.93341993038,37.661556052556,9,0,11230
11301,2,JR東海道本線(東京～熱海),トウカイドウホンセン,JR東海道本線(東京～熱海),,,,139.43024413263,35.395079623415,10,0,11301
11302,2,JR山手線,ヤマノテセン,JR山手線,,,,139.73522275686,35.69302730763,12,0,11302
11303,2,JR南武線,ナンブセン,JR南武線,,,,139.5621831285,35.621268017965,11,0,11303
11304,2,JR鶴見線,ツルミセン,JR鶴見線,,,,139.69734220226,35.503227015417,13,0,11304
11305,2,JR武蔵野線,ムサシノセン,JR武蔵野線,,,,139.70511311944,35.802577076923,10,0,11305
11306,2,JR横浜線,ヨコハマセン,JR横浜線,,,,139.4711185,35.561004106149,11,0,11306
11307,2,JR根岸線,ネギシセン,JR根岸線,,,,139.59867881738,35.414845593462,12,0,11307
11308,2,JR横須賀線,ヨコスカセン,JR横須賀線,,,,139.64761859128,35.48340539219,10,0,11308
11309,2,JR相模線,サガミセン,JR相模線,,,,139.36780165864,35.483174930602,11,0,11309
11311,2,JR中央本線(東京～塩尻),チュウオウホンセン,JR中央本線(東京～塩尻),,,,138.61735796978,35.7703673366,9,0,11311
11312,2,JR中央線(快速),チュウオウセン,JR中央線(快速),,,,139.53798847266,35.700170421149,10,0,11312
11313,2,JR中央・総武線,チュウオウ・ソウブセン,JR中央・総武緩行線,,,,139.83715522681,35.701641362335,10,0,11313
11314,2,JR総武本線,ソウブホンセン,JR総武本線,,,,140.25466124559,35.687902630018,9,0,11314
11315,2,JR青梅線,オウメセン,JR青梅線,,,,139.24004135477,35.782572650079,11,0,11315
11316,2,JR五日市線,イツカイチセン,JR五日市線,,,,139.29165743388,35.725830442826,12,0,11316
11317,2,JR八高線(八王子～高麗川),ハチコウセン,JR八高線(八王子～高麗川),,,,139.33299376182,35.78050242395,11,0,11317
11318,2,JR八高線(高麗川～高崎),ハチコウセン,JR八高線(高麗川～高崎),,,,139.17965333594,36.121041621507,10,0,11318
11319,2,宇都宮線,ウツノミヤセン,JR東北本線,,,,139.8464030032,36.379439240801,9,0,11319
11320,2,JR常磐線(上野～取手),ジョウバンセン,JR常磐線(上野～取手),,,,139.92381250144,35.819719327369,11,0,11320
11321,2,JR埼京線,サイキョウセン,JR埼京線,,,,139.61820154055,35.803195815713,11,0,11321
11322,2,JR川越線,カワゴエセン,JR川越線,,,,139.46934263477,35.909610455629,11,0,11322
11323,2,JR高崎線,タカサキセン,JR高崎線,,,,139.45218074609,36.095735640814,9,0,11323
11324,2,JR外房線,ソトボウセン,JR外房線,,,,140.27983028046,35.348739074074,10,0,11324
11325,2,JR内房線,ウチボウセン,JR内房線,,,,139.94808075586,35.293288268348,9,0,11325
11326,2,JR京葉線,ケイヨウセン,JR京葉線,,,,139.93611002908,35.643649620089,11,0,11326
11327,2,JR成田線,ナリタセン,JR成田線,,,,140.37238841518,35.862764659621,10,0,11327
11328,2,JR成田エクスプレス,ナリタエクスプレス,JR成田エクスプレス,,,,139.75719824349,35.692120917755,9,0,11328
11329,2,JR鹿島線,カシマセン,JR鹿島線,,,,140.56469727511,35.942684415907,12,0,11329
11330,2,JR久留里線,クルリセン,JR久留里線,,,,140.04649970913,35.350677697394,11,0,11330
11331,2,JR東金線,トウガネセン,JR東金線,,,,140.36805862754,35.562328658445,12,0,11331
11332,2,JR京浜東北線,ケイヒントウホクセン,JR京浜東北線,,,,139.64251209706,35.639295559243,10,0,11332
11333,2,JR湘南新宿ライン,ショウナンシンジュクライン,JR湘南新宿ライン,,,,139.62294366433,35.657399740719,10,0,11333
11343,2,上野東京ライン,ウエノトウキョウライン,上野東京ライン,,,,139.77210044861,35.697455807258,14,0,11333
11334,2,JR烏山線,カラスヤマセン,JR烏山線,,,,140.06497854492,36.65874003351,12,0,11334
11335,2,JR吾妻線,アヅマセン,JR吾妻線,,,,138.79130356098,36.552041262858,10,0,11335
11337,2,JR信越本線,シンエツホンセン,JR信越本線,,,,138.88077508398,36.330382339568,11,0,11337
11338,2,JR水郡線,スイグンセン,JR水郡線,,,,140.46215357133,36.922047433179,9,0,11338
11339,2,JR水戸線,ミトセン,JR水戸線,,,,140.05132073047,36.333565088505,10,0,11339
11340,2,JR日光線,ニッコウセン,JR日光線,,,,139.75294070368,36.636143451156,11,0,11340
11341,2,JR両毛線,リョウモウセン,JR両毛線,,,,139.38787997377,36.356773949791,10,0,11341
11342,2,JR上越線,ジョウエツセン,JR上越線,,,,138.89241921267,36.915386599758,9,0,11342
11401,2,小海線,コウミセン,JR小海線,,,,138.422021,36.326337,10,0,11401
11402,3,JR身延線,ミノブセン,JR身延線,,,,138.53239703335,35.392163238565,10,0,11402
11403,2,JR信越本線(篠ノ井～長野),シンエツホンセン,JR信越本線(篠ノ井～長野),,,,138.15981626976,36.608595973876,12,0,11403
11404,2,JR信越本線(直江津～新潟),シンエツホンセン,JR信越本線(直江津～新潟),,,,138.7595452407,37.511081742001,9,0,11404
11405,4,JR北陸本線(富山～直江津),ホクリクホンセン,JR北陸本線(富山～直江津),,,,137.7185005677,37.015008931034,9,2,11405
11406,2,JR白新線,ハクシンセン,JR白新線,,,,139.19047126289,37.924007206253,11,0,11406
11407,2,JR飯山線,イイヤマセン,JR飯山線,,,,138.5417322909,36.984460109833,10,0,11407
11408,2,JR越後線,エチゴセン,JR越後線,,,,138.83400027539,37.626748567722,10,0,11408
11409,2,北アルプス線,キタアルプスセン,JR大糸線,,,,137.87350871689,36.676127873254,9,0,11409
11410,2,JR弥彦線,ヤヒコセン,JR弥彦線,,,,138.90443525195,37.673318363401,12,0,11410
11411,3,JR中央本線(名古屋～塩尻),チュウオウホンセン,JR中央本線(名古屋～塩尻),,,,137.46849197656,35.662471100055,9,0,11411
11412,2,JR篠ノ井線,シノノイセン,JR篠ノ井線,,,,138.01727743711,36.384224750163,10,0,11412
11413,3,JR飯田線(豊橋～天竜峡),イイダセン,JR飯田線(豊橋～天竜峡),,,,137.66894936014,35.125647905593,10,0,11413
11414,3,JR飯田線(天竜峡～辰野),イイダセン,JR飯田線(天竜峡～辰野),,,,137.89863526278,35.759902181082,10,0,11414
11415,4,JR北陸本線(米原～敦賀),ホクリクホンセン,JR北陸本線(米原～敦賀),,,,136.44251036385,36.33393305789,8,0,11415
11416,3,JR高山本線,タカヤマホンセン,JR高山本線,,,,137.14373868155,36.035069783539,9,0,11416
11417,4,JR城端線,ジョウハナセン,JR城端線,,,,136.96308006078,36.646861127449,11,0,11417
11418,4,JR氷見線,ヒミセン,JR氷見線,,,,137.01678700586,36.806026512521,12,0,11418
11419,4,JR七尾線,ナナオセン,JR七尾線,,,,136.79162707188,36.880722401267,10,0,11419
11420,4,敦賀港線,ツルガコウセン,JR北陸本線(敦賀～敦賀港),,,,136.07553333862,35.656349205606,14,2,11420
11421,4,九頭竜線,クズリュウセン,JR越美北線,,,,136.44131139538,35.998584087021,10,0,11421
11422,4,JR小浜線,オバマセン,JR小浜線,,,,135.74181843294,35.530155481604,10,0,11422
11501,3,JR東海道本線(熱海～浜松),トウカイドウホンセン,JR東海道本線(熱海～浜松),,,,138.38880977712,34.949097324957,9,0,11501
11502,3,JR東海道本線(浜松～岐阜),トウカイドウホンセン,JR東海道本線(浜松～岐阜),,,,137.12918496789,35.046421828481,9,0,11502
11503,3,JR東海道本線(岐阜～美濃赤坂・米原),トウカイドウホンセン,JR東海道本線(岐阜～美濃赤坂・米原),,,,136.52815483464,35.363628974505,10,0,11503
11504,2,JR伊東線,イトウセン,JR伊東線,,,,139.06965506608,35.047592333333,12,0,11504
11505,3,JR御殿場線,ゴテンバセン,JR御殿場線,,,,139.03314251229,35.222460768209,11,0,11505
11506,3,JR武豊線,タケトヨセン,JR武豊線,,,,136.95868840957,34.93257926823,12,0,11506
11507,3,JR太多線,タイタセン,JR太多線,,,,137.06259225391,35.391158361729,12,0,11507
11508,3,JR関西本線(名古屋～亀山),カンサイホンセン,JR関西本線(名古屋～亀山),,,,136.63931487544,35.033339334396,10,0,11508
11509,4,JR関西本線(亀山～加茂),カンサイホンセン,JR関西本線(亀山～加茂),,,,136.17498940495,34.801434416667,10,0,11509
11510,3,JR紀勢本線,キセイホンセン,JR紀勢本線,,,,136.28726192745,34.321543953292,9,0,11510
11511,4,JR草津線,クサツセン,JR草津線,,,,136.1045245799,34.964585740522,11,0,11511
11512,3,JR参宮線,サングウセン,JR参宮線,,,,136.69878007156,34.495826004111,11,0,11512
11513,3,JR名松線,メイショウセン,JR名松線,,,,136.38817526784,34.600285315499,11,0,11513
11601,4,琵琶湖線,ビワコセン,JR東海道本線(米原～京都),,,,136.09513687266,35.119308827003,10,0,11601
11602,4,JR京都線,キョウトセン,JR東海道本線(京都～大阪),,,,135.495188,34.702398,11,0,11602
11603,4,JR神戸線(大阪～神戸),コウベセン,JR東海道本線(大阪～神戸),,,,135.33472853125,34.72876179055,11,0,11603
11605,4,JR湖西線,コセイセン,JR湖西線,,,,135.96488140075,35.246445825679,10,0,11605
11607,4,大和路線,ヤマトジセン,JR関西本線(加茂～ＪＲ難波),,,,135.67741585636,34.650433785559,11,0,11607
11608,4,JR神戸線(神戸～姫路),コウベセン,JR山陽本線(神戸～姫路),,,,134.92833866086,34.719971390406,10,0,11608
11609,4,JR山陽本線(姫路～岡山),サンヨウホンセン,JR山陽本線(姫路～岡山),,,,134.24621069357,34.813521557272,10,0,11609
11610,4,JR山陽本線(岡山～三原),サンヨウホンセン,JR山陽本線(岡山～三原),,,,133.56375767656,34.5230414,10,0,11610
11611,4,JR山陽本線(三原～岩国),サンヨウホンセン,JR山陽本線(三原～岩国),,,,132.54979970852,34.386501401423,10,0,11611
11612,4,JR山陽本線(岩国～門司),サンヨウホンセン,JR山陽本線(岩国～門司),,,,131.60634280321,34.071664450904,9,0,11612
11613,4,JR山陽本線(兵庫～和田岬),サンヨウホンセン,JR山陽本線(兵庫～和田岬),,,,135.16794204761,34.665775516298,14,0,11613
11614,4,嵯峨野線,サガノセン,JR山陰本線(京都～園部),,,,135.60415566433,35.053071042586,11,0,11614
11615,4,JR山陰本線(園部～豊岡),サンインホンセン,JR山陰本線(園部～豊岡),,,,135.08868444922,35.326094572618,10,0,11615
11616,4,JR山陰本線(豊岡～米子),サンインホンセン,JR山陰本線(豊岡～米子),,,,134.02090215811,35.521828602767,9,0,11616
11617,4,学研都市線,ガッケントシセン,JR片町線,,,,135.69016458203,34.759998398119,11,0,11617
11618,4,奈良線,ナラセン,奈良線,,,,135.78643415867,34.834023230959,11,0,11618
11622,4,JR舞鶴線,マイヅルセン,JR舞鶴線,,,,135.27931377257,35.367744237695,11,0,11622
11623,4,大阪環状線,オオサカカンジョウセン,大阪環状線,,,,135.50218918655,34.681541431156,13,0,11623
11624,4,JRゆめ咲線,ユメサキセン,JR桜島線,,,,135.44744518652,34.674044432381,13,0,11624
11625,4,JR東西線,トウザイセン,JR東西線,,,,135.47296650255,34.707925475796,13,0,11625
11626,4,阪和線(天王寺～和歌山),ハンワセン,阪和線(天王寺～和歌山),,,,135.40119375346,34.46154098228,10,0,11626
11627,4,羽衣線,ハゴロモセン,阪和線(鳳～東羽衣),,,,135.44957737036,34.534058567075,14,0,11627
11628,4,JR関西空港線,カンサイクウコウセン,JR関西空港線,,,,135.28886841797,34.415185002847,12,0,11628
11629,4,JR宝塚線,タカラヅカセン,JR福知山線(新大阪～篠山口),,,,135.34443493105,34.869892901768,10,0,11629
11630,4,福知山線(篠山口～福知山),フクチヤマセン,福知山線(篠山口～福知山),,,,135.10557603594,35.160770769623,11,0,11630
11631,4,JR赤穂線,アコウセン,JR赤穂線,,,,134.19749321946,34.747274477073,10,0,11631
11632,4,JR加古川線,カコガワセン,JR加古川線,,,,134.95252260319,34.937080097766,11,0,11632
11633,4,JR姫新線(姫路～佐用),キシンセン,JR姫新線(姫路～佐用),,,,134.52654312825,34.925861603837,11,0,11633
11634,4,JR姫新線(佐用～新見),キシンセン,JR姫新線(佐用～新見),,,,133.88053953969,35.050240803851,10,0,11634
11635,4,JR播但線,バンタンセン,JR播但線,,,,134.7640541773,35.113192959992,10,0,11635
11636,4,JR和歌山線,ワカヤマセン,JR和歌山線,,,,135.55708161653,34.36363683433,10,0,11636
11637,4,万葉まほろば線,マンヨウマホロバセン,桜井線,,,,135.80071228558,34.580689545149,12,0,11637
11639,4,きのくに線,キノクニセン,JR紀勢本線(新宮～和歌山),,,,135.42717545993,33.831836276319,9,0,11639
11640,4,紀勢本線(和歌山～和歌山市),キセイホンセン,紀勢本線(和歌山～和歌山市),,,,135.17833371428,34.238033068498,14,0,11640
11641,4,おおさか東線,オオサカヒガシセン,おおさか東線,,,,135.55,34.69,12,0,11641
11701,4,JR山陰本線(米子～益田),サンインホンセン,JR山陰本線(米子～益田),,,,132.56106754653,35.207310237833,9,0,11701
11702,4,JR山陰本線(益田～下関),サンインホンセン,JR山陰本線(益田～下関),,,,131.27266657109,34.35940660535,9,0,11702
11703,4,JR伯備線,ハクビセン,JR伯備線,,,,133.49562303232,35.053289076289,9,0,11703
11704,4,JR因美線,インビセン,JR因美線,,,,134.15001556289,35.264689974495,10,0,11704
11705,4,JR境線,サカイセン,JR境線,,,,133.26253975684,35.488057984264,12,0,11705
11706,4,JR木次線,キスキセン,JR木次線,,,,133.02147963238,35.199251462425,11,0,11706
11707,4,JR三江線,サンコウセン,JR三江線,,,,132.56298278823,34.94301166412,10,2,11707
11708,4,JR山口線,ヤマグチセン,JR山口線,,,,131.47348476744,34.346642771729,10,0,11708
11709,4,JR宇野線,ウノセン,JR宇野線,,,,133.91319936003,34.575841133333,12,0,11709
11710,4,瀬戸大橋線,セトオオハシセン,JR本四備讃線,,,,133.80943996289,34.454275893488,11,0,11710
11713,4,JR吉備線,キビセン,JR吉備線,,,,133.82726757246,34.681156069561,12,0,11713
11714,4,JR芸備線,ゲイビセン,JR芸備線,,,,132.92164288638,34.773930162989,9,0,11714
11715,4,JR津山線,ツヤマセン,JR津山線,,,,133.92270229113,34.891198111182,10,0,11715
11716,4,JR呉線,クレセン,JR呉線,,,,132.77973932813,34.387276957927,10,0,11716
11717,4,JR可部線,カベセン,JR可部線,,,,132.47781461538,34.458222540777,12,0,11717
11720,4,JR福塩線,フクエンセン,JR福塩線,,,,133.12978408112,34.638266294354,10,0,11720
11721,4,JR宇部線,ウベセン,JR宇部線,,,,131.30267582009,34.019352946498,11,0,11721
11722,4,JR美祢線,ミネセン,JR美祢線,,,,131.18069311028,34.23328101841,11,0,11722
11723,4,JR小野田線,オノダセン,JR小野田線,,,,131.19368612435,33.978555447048,12,0,11723
11724,4,JR岩徳線,ガントクセン,JR岩徳線,,,,132.05697608203,34.093477630992,11,0,11724
11801,5,JR土讃線,ドサンセン,JR土讃線,,,,133.57025726268,33.766400130048,9,0,11801
11802,5,JR高徳線,コウトクセン,JR高徳線,,,,134.31058397077,34.24954113266,10,0,11802
11803,5,よしの川ブルーライン,ヨシノガワブルーライン,JR徳島線,,,,134.15180845057,34.048722329656,10,0,11803
11804,5,JR牟岐線,ムギセン,JR牟岐線,,,,134.50842286055,33.839964753817,10,0,11804
11805,5,JR鳴門線,ナルトセン,JR鳴門線,,,,134.56842841797,34.163777981843,13,0,11805
11806,5,JR予讃線,ヨサンセン,JR予讃線,,,,133.36265926932,34.192991767512,9,0,11806
11807,5,JR予讃・内子線,ヨサン・ウチコセン,JR予讃・内子線,,,,132.589516825,33.557035374802,10,0,11807
11808,5,しまんとグリーンライン,シマントグリーンライン,JR予土線,,,,132.82238446662,33.232871923386,10,0,11808
11901,4,JR博多南線,ハカタミナミセン,JR博多南線,,,,130.4288095,33.564850122278,12,0,11901
11902,6,JR鹿児島本線(下関・門司港～博多),カゴシマホンセン,JR鹿児島本線(下関・門司港～博多),,,,130.62853753184,33.836705421057,10,0,11902
11903,6,JR鹿児島本線(博多～八代),カゴシマホンセン,JR鹿児島本線(博多～八代),,,,130.50630754953,33.092446018208,9,0,11903
11904,6,JR鹿児島本線(川内～鹿児島),カゴシマホンセン,JR鹿児島本線(川内～鹿児島),,,,130.36350199191,31.65334826453,10,0,11904
11905,6,JR長崎本線(鳥栖～長崎),ナガサキホンセン,JR長崎本線(鳥栖～長崎),,,,130.15215055841,33.121360170575,10,0,11905
11906,6,JR日豊本線(門司港～佐伯),ニッポウホンセン,JR日豊本線(門司港～佐伯),,,,131.30355155573,33.554935307059,9,0,11906
11907,6,JR日豊本線(佐伯～鹿児島中央),ニッポウホンセン,JR日豊本線(佐伯～鹿児島中央),,,,131.44721097991,32.216978335886,8,0,11907
11908,6,福北ゆたか線,フクホクユタカセン,JR篠栗線,,,,130.53270316276,33.619909871589,11,0,11908
11909,6,JR筑肥線(姪浜～西唐津),チクヒセン,JR筑肥線(姪浜～西唐津),,,,130.12941283594,33.511649366126,11,0,11909
11910,6,若松線,チクホウセン,JR筑豊本線(若松～折尾),,,,130.75212779362,33.88822022894,12,0,11910
11911,6,福北ゆたか線(折尾～桂川),フクホクユタカセン,JR筑豊本線(折尾～桂川),,,,130.70611418555,33.734500913439,11,0,11911
11912,6,原田線,ハルダセン,JR筑豊本線(桂川～原田),,,,130.60913221797,33.5241644,12,0,11912
11913,6,ゆふ高原線,ユフコウゲンセン,JR久大本線,,,,131.03599494331,33.262062303296,9,0,11913
11914,6,JR日田彦山線,ヒタヒコサンセン,JR日田彦山線,,,,130.87299922885,33.73,11,0,11914
11915,6,JR後藤寺線,ゴトウジセン,JR後藤寺線,,,,130.74314741536,33.638942676083,12,0,11915
11916,6,海の中道線,ウミノナカミチセン,JR香椎線(西戸崎～香椎),,,,130.40419308203,33.67670942056,12,0,11916
11917,6,JR香椎線(香椎～宇美),カシイセン,JR香椎線(香椎～宇美),,,,130.47290076762,33.619560462309,12,0,11917
11918,6,JR佐世保線,サセボセン,JR佐世保線,,,,129.9399702514,33.188115656646,11,0,11918
11920,6,JR筑肥線(西唐津～伊万里),チクヒセン,JR筑肥線(西唐津～伊万里),,,,129.9397357062,33.37129522314,11,0,11920
11921,6,JR唐津線,カラツセン,JR唐津線,,,,130.07740469824,33.335442702009,11,0,11921
11922,6,JR大村線,オオムラセン,JR大村線,,,,129.92142406401,33.001697847868,11,0,11922
11923,6,阿蘇高原線,アソコウゲンセン,JR豊肥本線,,,,131.26213019827,33.017126643984,9,0,11923
11924,6,三角線（あまくさみすみ線）,アマクサミスミセン,JR三角線,,,,130.58929812305,32.691449602041,11,0,11924
11925,6,えびの高原線(八代～吉松),エビノコウゲンセン,JR肥薩線(八代～吉松),,,,130.68331185135,32.286997315267,10,0,11925
11926,6,JR肥薩線(吉松～隼人),ヒサツセン,JR肥薩線(吉松～隼人),,,,130.70674646172,31.890984289008,11,0,11926
11927,6,JR宮崎空港線,ミヤザキクウコウセン,JR宮崎空港線,,,,131.43276229102,31.895343146073,13,0,11927
11928,6,JR日南線,ニチナンセン,JR日南線,,,,131.36265390204,31.683576551144,10,0,11928
11929,6,えびの高原線,エビノコウゲンセン,JR吉都線,,,,130.95640168417,31.917243912645,10,0,11929
11930,6,JR指宿枕崎線,イブスキマクラザキセン,JR指宿枕崎線,,,,130.5034108928,31.359999553777,10,0,11930
21001,11,東武東上線,トウブトウジョウセン,東武東上線,,,,139.45963786082,35.921218671003,10,0,21001
21002,11,東武伊勢崎線,トウブイセサキセン,東武伊勢崎線,,,,139.49934131662,36.056766424588,10,0,21002
21003,11,東武日光線,トウブニッコウセン,東武日光線,,,,139.69116016166,36.445797404992,9,0,21003
21004,11,東武野田線,トウブノダセン,東武野田線,,,,139.89191261825,35.887913220039,10,0,21004
21005,11,東武亀戸線,トウブカメイドセン,東武亀戸線,,,,139.82434675659,35.707951515131,14,0,21005
21006,11,東武大師線,トウブダイシセン,東武大師線,,,,139.78532285449,35.779061227779,15,0,21006
21007,11,東武越生線,トウブオゴセセン,東武越生線,,,,139.34262265479,35.953218770961,12,0,21007
21008,11,東武宇都宮線,トウブウツノミヤセン,東武宇都宮線,,,,139.81789435188,36.483790287246,12,0,21008
21009,11,東武鬼怒川線,トウブキヌガワセン,東武鬼怒川線,,,,139.70717357471,36.798129745501,12,0,21009
21010,11,東武佐野線,トウブサノセン,東武佐野線,,,,139.56805858145,36.328867598444,12,0,21010
21011,11,東武桐生線,トウブキリュウセン,東武桐生線,,,,139.32341258398,36.369396707573,12,0,21011
21012,11,東武小泉線,トウブコイズミセン,東武小泉線,,,,139.45065401064,36.256585926961,12,0,21012
22001,12,西武池袋線,セイブイケブクロセン,西武池袋線,,,,139.46789285918,35.791261736069,10,0,22001
22002,12,西武秩父線,セイブチチブセン,西武秩父線,,,,139.20473307156,35.921704596231,11,0,22002
22003,12,西武有楽町線,セイブユウラクチョウセン,西武有楽町線,,,,139.66759498413,35.74040400299,14,0,22003
22004,12,西武豊島線,セイブトシマセン,西武豊島線,,,,139.65151682275,35.740043166698,15,0,22004
22005,12,西武狭山線,セイブサヤマセン,西武狭山線,,,,139.43924865608,35.779602472346,14,0,22005
22006,12,レオライナー,レオライナー,西武山口線,,,,139.43144441797,35.770567609113,14,0,22006
22007,12,西武新宿線,セイブシンジュクセン,西武新宿線,,,,139.53086487352,35.776946871075,11,0,22007
22008,12,西武拝島線,セイブハイジマセン,西武拝島線,,,,139.41313556738,35.732864704761,12,0,22008
22009,12,西武西武園線,セイブセイブエンセン,西武西武園線,,,,139.4573715,35.764150582754,14,0,22009
22010,12,西武国分寺線,セイブコクブンジセン,西武国分寺線,,,,139.46774104551,35.730628203969,13,0,22010
22011,12,西武多摩湖線,セイブタマコセン,西武多摩湖線,,,,139.4685091852,35.741048131945,13,0,22011
22012,12,西武多摩川線,セイブタマガワセン,西武多摩川線,,,,139.51353168782,35.677028280788,13,0,22012
23001,13,京成本線,ケイセイホンセン,京成本線,,,,140.07226251113,35.726288869529,10,0,23001
23002,13,京成押上線,ケイセイオシアゲセン,京成押上線,,,,139.84176579897,35.737000349715,13,0,23002
23003,13,京成金町線,ケイセイカナマチセン,京成金町線,,,,139.86858506877,35.761222006316,14,0,23003
23004,13,京成千葉線,ケイセイチバセン,京成千葉線,,,,140.06613427607,35.650683445593,12,0,23004
23005,13,京成千原線,ケイセイチハラセン,京成千原線,,,,140.14014244173,35.578852314308,12,0,23005
23006,13,成田スカイアクセス,ナリタスカイアクセス,京成成田空港線,,,,140.04557998118,35.783474701669,10,0,23006
24001,14,京王線,ケイオウセン,京王線,,,,139.53357685915,35.678364294662,11,0,24001
24002,14,京王相模原線,ケイオウサガミハラセン,京王相模原線,,,,139.4375162168,35.625847,12,0,24002
24003,14,京王高尾線,ケイオウタカオセン,京王高尾線,,,,139.30843674603,35.643315903602,13,0,24003
24004,14,京王競馬場線,ケイオウケイバジョウセン,京王競馬場線,,,,139.48962301587,35.668945374045,14,0,24004
24005,14,京王動物園線,ケイオウドウブツエンセン,京王動物園線,,,,139.40999162964,35.657461750042,14,0,24005
24006,14,京王井の頭線,ケイオウイノガシラセン,京王井の頭線,,,,139.63498783283,35.676684994126,12,0,24006
24007,14,京王新線,ケイオウシンセン,京王新線,,,,139.68525052071,35.680498528148,14,0,24007
25001,15,小田急線,オダキュウセン,小田急小田原線,,,,139.43477539316,35.528535238628,11,0,25001
25002,15,小田急江ノ島線,オダキュウエノシマセン,小田急江ノ島線,,,,139.4497755016,35.435748097431,11,0,25002
25003,15,小田急多摩線,オダキュウタマセン,小田急多摩線,,,,139.46029374072,35.61945834975,13,0,25003
26001,16,東急東横線,トウキュウトウヨコセン,東急東横線,,,,139.66832596833,35.586080488105,11,0,26001
26002,16,東急目黒線,トウキュウメグロセン,東急目黒線,,,,139.67835129425,35.603755429181,13,0,26002
26003,16,東急田園都市線,トウキュウデンエントシセン,東急田園都市線,,,,139.58465916942,35.583242150059,11,0,26003
26004,16,東急大井町線,トウキュウオオイマチセン,東急大井町線,,,,139.6753762487,35.607027243076,12,0,26004
26005,16,東急池上線,トウキュウイケガミセン,東急池上線,,,,139.70623944131,35.593936510961,13,0,26005
26006,16,東急多摩川線,トウキュウタマガワセン,東急多摩川線,,,,139.68743273016,35.572441640628,13,0,26006
26007,16,東急世田谷線,トウキュウセタガヤセン,東急世田谷線,,,,139.65254186138,35.653196779881,14,0,26007
26008,16,東急こどもの国線,トウキュウコドモノクニセン,東急こどもの国線,,,,139.48785908992,35.548109757537,14,0,26008
26009,16,東急新横浜線,トウキュウシンヨコハマセン,東急新横浜線,,,,139.636167,35.536639,13,0,26009
27001,17,京急本線,ケイキュウホンセン,京急本線,,,,139.66542155594,35.470013165246,10,0,27001
27002,17,京急空港線,ケイキュウクウコウセン,京急空港線,,,,139.74978371429,35.555001253065,13,0,27002
27003,17,京急大師線,ケイキュウダイシセン,京急大師線,,,,139.7232999894,35.535690499872,14,0,27003
27004,17,京急逗子線,ケイキュウズシセン,京急逗子線,,,,139.59885124072,35.314704348486,13,0,27004
27005,17,京急久里浜線,ケイキュウクリハマセン,京急久里浜線,,,,139.6682823227,35.228707904602,12,0,27005
28001,18,東京メトロ銀座線,ギンザセン,東京メトロ銀座線,F7931D,オレンジ,,139.75720810526,35.686460950459,13,0,28001
28002,18,東京メトロ丸ノ内線,マルノウチセン,東京メトロ丸ノ内線,E60012,レッド,,139.70043660044,35.705185135772,12,0,28002
28003,18,東京メトロ日比谷線,ヒビヤセン,東京メトロ日比谷線,89A1AD,シルバー,,139.76790012172,35.694692338733,12,0,28003
28004,18,東京メトロ東西線,トウザイセン,東京メトロ東西線,00A7DB,スカイブルー,,139.81549134971,35.683265329762,11,0,28004
28005,18,東京メトロ千代田線,チヨダセン,東京メトロ千代田線,009933,グリーン,,139.75586119551,35.723011671551,12,0,28005
28006,18,東京メトロ有楽町線,ユウラクチョウセン,東京メトロ有楽町線,C5C544,ゴールド,,139.7042043431,35.733165519161,11,0,28006
28008,18,東京メトロ半蔵門線,ハンゾウモンセン,東京メトロ半蔵門線,A757A8,パープル,,139.76522714816,35.68813210626,12,0,28008
28009,18,東京メトロ南北線,ナンボクセン,東京メトロ南北線,00ADA9,エメラルド,,139.73433187076,35.710299718408,12,0,28009
28010,18,東京メトロ副都心線,フクトシンセン,東京メトロ副都心線,BB6633,ブラウン,,139.68666347754,35.731442005433,12,0,28010
29001,19,相鉄本線,ソウテツホンセン,相鉄本線,,,,139.50914329351,35.46560374998,11,0,29001
29002,19,相鉄いずみ野線,ソウテツイズミノセン,相鉄いずみ野線,,,,139.49649288818,35.431541345898,13,0,29002
29003,19,相鉄・JR直通線,ソウテツ・ジェイアールチョクツウセン,相鉄・JR直通線,,,,139.55227076729,35.576598192473,11,0,29003
29004,19,相鉄新横浜線,ソウテツシンヨコハマセン,相鉄新横浜線,,,,139.5919,35.497093,13,0,29004
30001,20,名鉄名古屋本線,メイテツナゴヤホンセン,名鉄名古屋本線,,,,137.0464890931,35.090244655301,10,0,30001
30002,20,名鉄豊川線,メイテツトヨカワセン,名鉄豊川線,,,,137.36208428145,34.829166872047,13,0,30002
30003,20,名鉄西尾線,メイテツニシオセン,名鉄西尾線,,,,137.07578999902,34.89567964566,11,0,30003
30004,20,名鉄蒲郡線,メイテツガマゴオリセン,名鉄蒲郡線,,,,137.14905346289,34.830155083926,12,0,30004
30005,20,名鉄三河線,メイテツミカワセン,名鉄三河線,,,,137.03974462462,35.02789179794,11,0,30005
30006,20,名鉄豊田線,メイテツトヨタセン,名鉄豊田線,,,,137.09495931738,35.120296235362,12,0,30006
30007,20,名鉄空港線,メイテツクウコウセン,名鉄空港線,,,,136.82754263493,34.878389589252,13,0,30007
30008,20,名鉄常滑線,メイテツトコナメセン,名鉄常滑線,,,,136.87202090129,35.052184094597,11,0,30008
30009,20,名鉄河和線,メイテツコウワセン,名鉄河和線,,,,136.90604658194,34.923751774912,11,0,30009
30010,20,名鉄知多新線,メイテツチタシンセン,名鉄知多新線,,,,136.88079230957,34.804816079117,12,0,30010
30011,20,名鉄築港線,メイテツチッコウセン,名鉄築港線,,,,136.90566317725,35.091876796523,14,0,30011
30012,20,名鉄瀬戸線,メイテツセトセン,名鉄瀬戸線,,,,136.99254328203,35.207830352249,11,0,30012
30013,20,名鉄津島線,メイテツツシマセン,名鉄津島線,,,,136.77818202246,35.198356309028,12,0,30013
30014,20,名鉄尾西線,メイテツビサイセン,名鉄尾西線,,,,136.74435732435,35.243666720392,11,0,30014
30015,20,名鉄犬山線,メイテツイヌヤマセン,名鉄犬山線,,,,136.88986472695,35.311657113672,11,0,30015
30016,20,名鉄各務原線,メイテツカカミガハラセン,名鉄各務原線,,,,136.85325381484,35.403204284488,12,0,30016
30017,20,名鉄広見線,メイテツヒロミセン,名鉄広見線,,,,137.02897624906,35.417841533606,12,0,30017
30018,20,名鉄小牧線,メイテツコマキセン,名鉄小牧線,,,,136.93961329366,35.296313523647,12,0,30018
30019,20,犬山モノレール,イヌヤマモノレール,名鉄モンキーパークモノレール線,,,,136.95116149736,35.390617823339,15,2,30019
30020,20,名鉄竹鼻線,メイテツタケハナセン,名鉄竹鼻線,,,,136.73250305295,35.349351079861,13,0,30020
30021,20,名鉄羽島線,メイテツハシマセン,名鉄羽島線,,,,136.693134,35.31404976239,14,0,30021
31001,21,近鉄難波線,キンテツナンバセン,近鉄難波線,,,,135.52715820898,34.663363778757,12,0,31001
31002,21,近鉄橿原線,キンテツカシハラセン,近鉄橿原線,,,,135.78551050388,34.596652694308,11,0,31002
31003,21,近鉄南大阪線,キンテツミナミオオサカセン,近鉄南大阪線,,,,135.65305195787,34.572452045721,11,0,31003
31004,21,近鉄養老線,キンテツヨウロウセン,近鉄養老線,,,,136.63201242347,35.259232219458,10,2,31004
31005,21,近鉄大阪線,キンテツオオサカセン,近鉄大阪線,,,,135.87205397591,34.61556505,10,0,31005
31006,21,近鉄伊賀線,キンテツイガセン,近鉄伊賀線,,,,136.13928274337,34.733360528718,12,2,31006
31007,21,近鉄吉野線,キンテツヨシノセン,近鉄吉野線,,,,135.79450404102,34.429439678711,12,0,31007
31008,21,近鉄湯の山線,キンテツユノヤマセン,近鉄湯の山線,,,,136.54436416348,34.994192911502,12,0,31008
31009,21,近鉄山田線,キンテツヤマダセン,近鉄山田線,,,,136.59033779352,34.569800408478,11,0,31009
31010,21,近鉄鳥羽線,キンテツトバセン,近鉄鳥羽線,,,,136.77274584551,34.483810200395,12,0,31010
31011,21,近鉄天理線,キンテツテンリセン,近鉄天理線,,,,135.80370124072,34.602763,13,0,31011
31012,21,近鉄道明寺線,キンテツドウミョウジセン,近鉄道明寺線,,,,135.62202935979,34.580118020584,14,0,31012
31013,247,内部線,ウツベセン,内部線,,,,136.60513649805,34.949514634703,13,0,31013
31014,247,八王子線,ハチオウジセン,八王子線,,,,136.60779761377,34.958208185442,14,0,31014
31015,21,近鉄志摩線,キンテツシマセン,近鉄志摩線,,,,136.82690310449,34.403197614507,11,0,31015
31016,21,近鉄生駒線,キンテツイコマセン,近鉄生駒線,,,,135.70291861507,34.654095754657,13,0,31016
31017,21,近鉄田原本線,キンテツタワラモトセン,近鉄田原本線,,,,135.74351403833,34.574637584546,13,0,31017
31018,21,近鉄御所線,キンテツゴセセン,近鉄御所線,,,,135.72487327246,34.488001852982,13,0,31018
31019,21,近鉄鈴鹿線,キンテツスズカセン,近鉄鈴鹿線,,,,136.58279578203,34.877984989431,13,0,31019
31020,21,近鉄奈良線,キンテツナラセン,近鉄奈良線,,,,135.69037883275,34.687692680053,11,0,31020
31021,21,近鉄信貴線,キンテツシギセン,近鉄信貴線,,,,135.63263404761,34.625062516621,14,0,31021
31022,21,近鉄長野線,キンテツナガノセン,近鉄長野線,,,,135.59867586182,34.500494748416,12,0,31022
31023,21,近鉄けいはんな線,キンテツケイハンナセン,近鉄けいはんな線,,,,135.67586383008,34.69894594011,12,0,31023
31024,21,西信貴ケーブル,ニシシギケーブル,近鉄西信貴鋼索線,,,,135.647956,34.617670628245,15,0,31024
31025,21,近鉄京都線,キンテツキョウトセン,近鉄京都線,,,,135.78559927916,34.853989329295,11,0,31025
31026,21,生駒ケーブル,イコマケーブル,近鉄生駒鋼索線,,,,135.68880395239,34.685818800797,14,0,31026
31027,21,近鉄名古屋線,キンテツナゴヤセン,近鉄名古屋線,,,,136.64387296786,34.943061105011,10,0,31027
32001,22,南海本線,ナンカイホンセン,南海本線,,,,135.3620306552,34.495409794093,10,0,32001
32002,22,南海空港線,ナンカイクウコウセン,南海空港線,,,,135.28406741797,34.423067923727,12,0,32002
32003,22,南海和歌山港線,ナンカイワカヤマコウセン,南海和歌山港線,,,,135.15513970898,34.231380855313,13,0,32003
32004,22,南海高師浜線,ナンカイタカシノハマセン,南海高師浜線,,,,135.43873427515,34.53069292334,15,0,32004
32005,22,南海加太線,ナンカイカダセン,南海加太線,,,,135.12562451324,34.264374992203,12,0,32005
32006,22,南海多奈川線,ナンカイタナガワセン,南海多奈川線,,,,135.14480431348,34.318367862234,14,0,32006
32007,22,南海高野線,ナンカイコウヤセン,南海高野線,,,,135.54327309524,34.465338529447,9,0,32007
32008,22,南海高野山ケーブル,ナンカイコウヤサンケーブル,南海高野山ケーブル,,,,135.57993433069,34.2315662376,15,0,32008
32009,22,南海汐見橋線,ナンカイシオミバシセン,南海汐見橋線,,,,135.48640268782,34.648351593735,13,0,32009
33001,23,京阪本線,ケイハンホンセン,京阪本線,,,,135.67056437575,34.849576794426,10,0,33001
33002,23,京阪宇治線,ケイハンウジセン,京阪宇治線,,,,135.78688991797,34.918987375,13,0,33002
33003,23,京阪交野線,ケイハンカタノセン,京阪交野線,,,,135.66786864087,34.794003156047,13,0,33003
33004,23,京阪鴨東線,ケイハンオウトウセン,京阪鴨東線,,,,135.77218700529,35.023132336607,14,0,33004
33005,23,石清水八幡宮参道ケーブル,イワシミズハチマングウサンドウケーブル,京阪鋼索線,,,,135.69970633862,34.883348860759,16,0,33005
33006,23,京阪石山坂本線,ケイハンイシヤマサカモトセン,京阪石山坂本線,,,,135.87368751321,35.021354810422,12,0,33006
33007,23,京阪京津線,ケイハンケイシンセン,京阪京津線,,,,135.83517567194,35.005599477996,13,0,33007
33008,23,京阪中之島線,ケイハンナカノシマセン,京阪中之島線,,,,135.50042809312,34.69339585418,14,0,33008
34001,24,阪急神戸本線,ハンキュウコウベホンセン,阪急神戸本線,,,,135.35356247656,34.735818925703,11,0,34001
34002,24,阪急宝塚本線,ハンキュウタカラヅカホンセン,阪急宝塚本線,,,,135.43434710526,34.786061137922,12,0,34002
34003,24,阪急京都本線,ハンキュウキョウトホンセン,阪急京都本線,,,,135.61073412688,34.860505851852,10,0,34003
34004,24,阪急今津線,ハンキュウイマヅセン,阪急今津線,,,,135.35466527515,34.770692046144,13,0,34004
34005,24,阪急甲陽線,ハンキュウコウヨウセン,阪急甲陽線,,,,135.32876150793,34.752838687946,14,0,34005
34006,24,阪急伊丹線,ハンキュウイタミセン,阪急伊丹線,,,,135.41460476587,34.770061233011,14,0,34006
34007,24,阪急箕面線,ハンキュウミノオセン,阪急箕面線,,,,135.46021566138,34.82297850569,14,0,34007
34008,24,阪急千里線,ハンキュウセンリセン,阪急千里線,,,,135.51339365466,34.770891060114,12,0,34008
34009,24,阪急嵐山線,ハンキュウアラシヤマセン,阪急嵐山線,,,,135.69109537036,34.99649848993,14,0,34009
35001,25,阪神本線,ハンシンホンセン,阪神本線,,,,135.33881453344,34.727138089889,11,0,35001
35002,25,阪神なんば線,ハンシンナンバセン,阪神なんば線,,,,135.45421802017,34.694375856271,13,0,35002
35003,25,阪神武庫川線,ハンシンムコガワセン,阪神武庫川線,,,,135.37922457275,34.712243327967,15,0,35003
36001,26,西鉄天神大牟田線,ニシテツテンジンオオムタセン,西鉄天神大牟田線,,,,130.46953010045,33.337366160738,10,0,36001
36002,26,西鉄太宰府線,ニシテツダザイフセン,西鉄太宰府線,,,,130.52547098942,33.510780666667,14,0,36002
36003,26,西鉄甘木線,ニシテツアマギセン,西鉄甘木線,,,,130.60003945769,33.374579698257,12,0,36003
36004,26,西鉄貝塚線,ニシテツカイヅカセン,西鉄貝塚線,,,,130.4465090625,33.711976630333,12,0,36004
99101,101,札幌市営地下鉄東西線,サッポロシエイチカテツトウザイセン,札幌市営地下鉄東西線,,,,141.37728389702,43.056549405485,11,0,99101
99102,101,札幌市営地下鉄南北線,サッポロシエイチカテツトナンボクセン,札幌市営地下鉄南北線,,,,141.34333221387,43.064543539029,12,0,99102
99103,101,札幌市営地下鉄東豊線,サッポロシエイチカテツトウホウセン,札幌市営地下鉄東豊線,,,,141.37309843652,43.071952122476,12,0,99103
99104,252,札幌市電,サッポロシデン,札幌市電 一条・山鼻軌道線,,,,141.34419829514,43.046839819188,14,0,99104
99105,102,函館市電２系統,ハコダテシデンニケイトウ,函館市電２系統,,,,140.74738524247,41.780540656947,13,0,99105
99106,102,函館市電５系統,ハコダテシデンゴケイトウ,函館市電５系統,,,,140.74372620058,41.779569127971,13,0,99106
99107,103,ふるさと銀河線,フルサトギンガセン,北海道ちほく高原鉄道ふるさと銀河線,,,,143.64003612643,43.422923946801,9,2,99107
99108,248,道南いさりび鉄道線,ドウナンイサリビテツドウセン,道南いさりび鉄道線,,,,140.58586120605,41.729305174526,11,0,99108
99201,104,津軽鉄道線,ツガルテツドウセン,津軽鉄道線,,,,140.44753154622,40.891851424917,11,0,99201
99202,105,弘南鉄道弘南線,コウナンテツドウコウナンセン,弘南鉄道弘南線,,,,140.5487134987,40.611754816711,12,0,99202
99203,105,弘南鉄道大鰐線,コウナンテツドウオオワニセン,弘南鉄道大鰐線,,,,140.50905324072,40.560211519594,12,0,99203
99204,106,十和田観光電鉄,トワダカンコウデンテツ,十和田観光電鉄,,,,141.29270167401,40.643408227847,12,2,99204
99205,107,いわて銀河鉄道線,イワテギンガテツドウセン,いわて銀河鉄道線,,,,141.18805201528,40.049657804856,10,0,99205
99206,108,青い森鉄道線,アオイモリテツドウセン,青い森鉄道線,,,,141.05217915069,40.66322160763,9,0,99206
99207,109,三陸鉄道北リアス線,サンリクテツドウキタリアスセン,三陸鉄道北リアス線,,,,141.85979926758,39.913360942803,10,2,99207
99208,109,三陸鉄道リアス線,サンリクテツドウリアスセン,三陸鉄道リアス線,,,,141.80711444492,39.682264153621,9,0,99208
99209,110,秋田内陸線,アキタナイリクセン,秋田内陸縦貫鉄道秋田内陸線,,,,140.46893411025,39.917595313058,10,0,99209
99210,111,鳥海山ろく線,チョウカイサンロクセン,由利高原鉄道鳥海山ろく線,,,,140.09437879231,39.315005300556,11,0,99210
99211,112,フラワー長井線,ヤマガタテツドウフラワーナガイセン,山形鉄道フラワー長井線,,,,140.08242404021,38.126082788566,12,0,99211
99212,113,くりはら田園鉄道線,クリハラデンエンテツドウセン,くりはら田園鉄道線,,,,141.03326683594,38.815749349921,11,2,99212
99213,114,阿武隈急行線,アブクマキュウコウセン,阿武隈急行線,,,,140.66291748633,37.919175596315,11,0,99213
99214,115,仙台市営地下鉄南北線,センダイシエイチカテツナンボクセン,仙台市営地下鉄南北線,,,,140.87999335139,38.276251680301,12,0,99214
99218,115,仙台市営地下鉄東西線,センダイシエイチカテツトウザイセン,仙台市営地下鉄東西線,,,,140.88815689087,38.261097692886,12,0,99214
99215,116,福島交通飯坂線,フクシマシエイコウツウイイザカセン,福島交通飯坂線,,,,140.45316386247,37.795161572068,13,0,99215
99216,117,会津鉄道会津線,アイヅテツドウアイヅセン,会津鉄道会津線,,,,139.84804796829,37.286759514481,10,0,99216
99217,118,仙台空港線,センダイクウコウセン,仙台空港鉄道仙台空港線,,,,140.90579885449,38.161795240605,13,0,99217
99301,119,都営大江戸線,トエイオオエドセン,都営大江戸線,,,,139.71370417576,35.707546227112,12,0,99301
99302,119,都営浅草線,トエイアサクサセン,都営浅草線,,,,139.75860382725,35.662261944417,12,0,99302
99303,119,都営三田線,トエイミタセン,都営三田線,,,,139.70321762421,35.71883584494,12,0,99303
99304,119,都営新宿線,トエイシンジュクセン,都営新宿線,,,,139.80940398417,35.689174794942,11,0,99304
99305,119,東京さくらトラム（都電荒川線）,トウキョウサクラトラム（トデンアラカワセン）,都営都電荒川線,,,,139.718928,35.711848,13,0,99305
99342,119,日暮里・舎人ライナー,ニッポリ・トネリライナー,日暮里・舎人ライナー,,,,139.76949647741,35.781825686122,12,0,99305
99306,120,秩父鉄道秩父本線,チチブテツドウチチブホンセン,秩父鉄道秩父本線,,,,139.2068138813,36.1009952954,10,0,99306
99307,121,埼玉高速鉄道線,サイタマコウソクテツドウセン,埼玉高速鉄道線,,,,139.7270159834,35.842332681291,12,0,99307
99308,122,いすみ線,イスミセン,いすみ鉄道いすみ線,,,,140.29133946833,35.267410950822,12,0,99308
99309,123,つくばエクスプレス,ツクバエクスプレス,首都圏新都市鉄道つくばエクスプレス,,,,139.93750930625,35.905771906557,10,0,99309
99310,124,みなとみらい線,ミナトミライセン,みなとみらい21線,,,,139.63609880159,35.455682638016,14,0,99310
99311,125,ゆりかもめ,ユリカモメ,ゆりかもめ東京臨海新交通臨海線,,,,139.77494982373,35.642869846859,13,0,99311
99312,126,わたらせ渓谷線,ワタラセケイコクセン,わたらせ渓谷鐵道わたらせ渓谷線,,,,139.35075580182,36.533240247884,11,0,99312
99313,127,ユーカリが丘線,ユーガリガオカセン,山万ユーカリが丘線,,,,140.15304849736,35.73088307488,15,0,99313
99314,128,伊豆箱根鉄道大雄山線,イズハコネテツドウダイユウザンセン,伊豆箱根鉄道大雄山線,,,,139.13094741927,35.289398083333,13,0,99314
99315,129,ひたちなか海浜鉄道湊線,ヒタチナカカイヒンテツドウミナトセン,ひたちなか海浜鉄道湊線,,,,140.57295516401,36.371476227412,12,0,99315
99316,130,ブルーライン,ブルーライン,横浜市高速鉄道1号線・3号線,,,,139.5514822959,35.487767502141,11,0,99316
99343,130,グリーンライン,グリーンライン,横浜市高速鉄道4号線,,,,139.58693689521,35.547245798408,13,0,99316
99317,131,金沢シーサイドライン,カナザワシーサイドライン,横浜新都市交通金沢シーサイドライン,,,,139.63114433063,35.362156748956,13,0,99317
99318,132,関東鉄道常総線,カントウテツドウジョウソウセン,関東鉄道常総線,,,,139.99013930492,36.119885050385,10,0,99318
99319,132,関東鉄道竜ヶ崎線,カントウテツドウリュウガサキセン,関東鉄道竜ヶ崎線,,,,140.15730669312,35.918931647193,13,0,99319
99320,133,江ノ島電鉄線,エノシマデンテツセン,江ノ島電鉄線,,,,139.51240710479,35.326088202628,13,0,99320
99321,134,ニューシャトル,ニューシャトル,埼玉新都市交通伊奈線,,,,139.61628077085,35.962695134731,12,0,99321
99322,135,鹿島鉄道線,カシマテツドウセン,鹿島鉄道線,,,,140.39112930414,36.158972272736,12,2,99322
99323,136,鹿島臨海鉄道大洗鹿島線,カシマリンカイテツドウオオアライカシマセン,鹿島臨海鉄道大洗鹿島線,,,,140.54283357227,36.187305681791,10,0,99323
99324,137,芝山鉄道線,シバヤマテツドウセン,芝山鉄道線,,,,140.39236169312,35.763562433826,14,0,99324
99325,138,小湊鉄道線,コミナトテツドウセン,小湊鉄道線,,,,140.12739861631,35.395848485772,11,0,99325
99326,139,湘南モノレール,ショウナンモノレール,湘南モノレール,,,,139.510244625,35.332232488316,13,0,99326
99327,140,上信電鉄,ジョウシンデンテツ,上信電鉄,,,,138.91563430781,36.266190081525,11,0,99327
99328,141,上毛電気鉄道上毛線,ジョウモウデンキテツドウジョウモウセン,上毛電気鉄道上毛線,,,,139.19116825391,36.417048379027,11,0,99328
99329,142,新京成線,シンケイセイセン,新京成電鉄新京成線,,,,139.97042634375,35.759050705694,12,0,99329
99330,143,真岡鐵道真岡線,モオカテツドウモオカセン,真岡鐵道真岡線,,,,140.0426814861,36.445020326649,11,0,99330
99331,144,千葉都市モノレール１号線,チバトシモノレールイチゴウセン,千葉都市モノレール１号線,,,,140.11310786772,35.608265091811,14,0,99331
99332,144,千葉都市モノレール２号線,チバトシモノレールニゴウセン,千葉都市モノレール２号線,,,,140.1410857668,35.626391766399,13,0,99332
99333,145,流鉄流山線,リュウテツナガレヤマセン,流鉄流山線,,,,139.91199264551,35.837926642056,13,0,99333
99334,146,多摩モノレール,タマモノレール,多摩都市モノレール線,,,,139.42169850771,35.697431414861,12,0,99334
99335,147,銚子電鉄線,チョウシデンテツセン,銚子電気鉄道線,,,,140.84740317246,35.719128212382,13,0,99335
99336,148,東京モノレール,トウキョウモノレール,東京モノレール羽田空港線,,,,139.76328619096,35.591022808774,12,0,99336
99337,149,りんかい線,リンカイセン,東京臨海高速鉄道りんかい線,,,,139.76612964282,35.623733011573,13,0,99337
99338,150,東葉高速線,トウヨウコウソクセン,東葉高速鉄道東葉高速線,,,,140.03804726443,35.719061,12,0,99338
99339,151,箱根登山鉄道鉄道線,ハコネトザンテツドウテツドウセン,箱根登山鉄道鉄道線,,,,139.09949102313,35.245979085622,12,0,99339
99340,152,北総鉄道北総線,ホクソウテツドウホクソウセン,北総鉄道北総線,,,,140.03784499075,35.783462858466,11,0,99340
99341,153,ほっとスパ・ライン,ホットスパライン,野岩鉄道会津鬼怒川線,,,,139.70133274067,36.987335574449,11,0,99341
99344,151,箱根登山ケーブルカー,ハコネトザンケーブルカー,箱根登山鉄道鋼索線,,,,139.04142379761,35.248167,15,0,99344
99345,250,芳賀・宇都宮LRT,ウツノミヤハガライトレールセン,宇都宮芳賀ライトレール線,,,,139.945,36.554828,12,0,99345
99401,154,富士急行線,フジキュウコウセン,富士急行線,,,,138.86075605024,35.553671122984,12,0,99401
99402,155,北越急行ほくほく線,ホクエツキュウコウホクホクセン,北越急行ほくほく線,,,,138.59099433333,37.139661754914,10,0,99402
99403,156,しなの鉄道線,シナノテツドウセン,しなの鉄道線,,,,138.31742924147,36.419423909335,10,0,99403
99427,156,北しなの線,キタシナノセン,北しなの線,,,,138.2105016592,36.755306038955,11,0,99403
99404,157,上田電鉄別所線,ウエダデンテツベッショセン,上田電鉄別所線,,,,138.21092225608,36.37625258348,13,0,99404
99405,158,長野電鉄長野線,ナガノデンテツナガノセン,長野電鉄長野線,,,,138.30425232813,36.701859302587,11,0,99405
99406,158,長野電鉄屋代線,ナガノデンテツヤシロセン,長野電鉄屋代線,,,,138.21193550511,36.599249252395,12,2,99406
99407,159,上高地線,カミコウチセン,アルピコ交通上高地線,,,,137.8973824682,36.213717379095,12,0,99407
99408,160,富山地鉄本線,トヤマチテツホンセン,富山地鉄本線,,,,137.38976132823,36.789882435974,11,0,99408
99409,160,富山地鉄立山線,トヤマチテツタテヤマセン,富山地鉄立山線,,,,137.37055082296,36.632597035937,12,0,99409
99410,160,富山地鉄不二越・上滝線,トヤマチテツフジコシ・カミダキセン,富山地鉄不二越・上滝線,,,,137.25252600319,36.654978014273,12,0,99410
99411,161,神岡鉄道神岡線,カミオカテツドウカミオカセン,神岡鉄道神岡線,,,,137.27280775391,36.404333174002,12,2,99411
99412,162,黒部峡谷鉄道本線,クロベキョウコクテツドウホンセン,黒部峡谷鉄道本線,,,,137.62933635449,36.771398208953,12,0,99412
99413,160,富山地鉄市内線【１・２系統】,トヤマチテツシナイセン,富山地鉄市内線,,,,137.21048993623,36.687492188879,14,0,99413
99422,160,富山地鉄富山都心線【３系統(環状線)】,トヤマチテツトヤマトシンセン,富山地鉄富山都心線,,,,137.2128868103,36.695539154132,15,0,99413
99414,163,万葉線,マンヨウセン,万葉線,,,,137.05198785928,36.768653934981,13,0,99414
99415,160,富山港線,トヤマコウセン,富山港線,,,,137.23409,36.761212,13,0,99415
99416,165,北陸鉄道石川線,ホクリクテツドウイシカワセン,北陸鉄道石川線,,,,136.62763019846,36.507489305599,12,0,99416
99417,165,北陸鉄道浅野川線,ホクリクテツドウアサノガワセン,北陸鉄道浅野川線,,,,136.64124453304,36.611011077535,13,0,99417
99423,244,日本海ひすいライン,ニホンカイヒスイライン,日本海ひすいライン,,,,138.0056284368,37.092750222369,10,0,99417
99424,244,妙高はねうまライン,ミョウコウハネウマライン,妙高はねうまライン,,,,138.0056284368,37.092750222369,10,0,99417
99425,245,あいの風とやま鉄道線,アイノカゼトヤマテツドウセン,あいの風とやま鉄道線,,,,137.21461293753,36.684159937672,10,0,99417
99426,246,IRいしかわ鉄道線,アイアールイシカワテツドウセン,IRいしかわ鉄道株式会社,,,,136.6,36.5,10,0,99417
99418,166,のと鉄道七尾線,ノトテツドウナナオセン,のと鉄道七尾線,,,,136.90441537109,37.124485067777,11,0,99418
99419,167,えちぜん鉄道勝山永平寺線,エチゼンテツドウカツヤマエイヘイジセン,えちぜん鉄道勝山永平寺線,,,,136.35136147538,36.086418977113,11,0,99419
99420,167,えちぜん鉄道三国芦原線,エチゼンテツドウミクニアワラセン,えちぜん鉄道三国芦原線,,,,136.19195268869,36.162791926785,11,0,99420
99421,168,福井鉄道福武線,フクイテツドウフクブセン,福井鉄道福武線,,,,136.2068053916,36.010775574279,12,0,99421
99428,251,ハピラインふくい線,ハピラインフクイセン,ハピラインふくい線,,,,136.3,36,9,0,99426
99501,169,伊豆急行線,イズキュウコウセン,伊豆急行線,,,,139.04158977539,34.824429658256,11,0,99501
99502,128,伊豆箱根鉄道駿豆線,イズハコネテツドウスンズセン,伊豆箱根鉄道駿豆線,,,,138.9315606353,35.056607988173,12,0,99502
99503,170,岳南鉄道線,ガクナンテツドウセン,岳南鉄道線,,,,138.71412137725,35.15955767005,13,0,99503
99504,171,静岡鉄道静岡清水線,シズオカテツドウシズオカシミズセン,静岡鉄道静岡清水線,,,,138.43905812175,34.998158913627,12,0,99504
99505,172,天竜浜名湖線,テンリュウハマナコセン,天竜浜名湖鉄道天竜浜名湖線,,,,137.73047117969,34.827763716406,10,0,99505
99506,173,遠州鉄道鉄道線,エンシュウテツドウテツドウセン,遠州鉄道鉄道線,,,,137.77619852919,34.781571700638,12,0,99506
99507,174,大井川鐵道大井川本線,オオイガワテツドウオオイガワホンセン,大井川鐵道大井川本線,,,,138.10725218576,34.969743066114,11,0,99507
99508,174,南アルプスあぷとライン,ミナミアルプスアプトライン,大井川鐵道井川線,,,,138.16176092857,35.168191519026,12,0,99508
99509,175,あおなみ線,アオナミセン,西名古屋港線,,,,136.86506338193,35.12536651434,12,0,99509
99510,176,東海交通事業城北線,トウカイコウツウジギョウジョウホクセン,東海交通事業城北線,,,,136.89666252116,35.229299962293,13,0,99510
99511,177,愛知環状鉄道線,アイチカンジョウテツドウセン,愛知環状鉄道線,,,,137.12218816695,35.121306340265,10,0,99511
99512,178,リニモ,リニモ,東部丘陵線,,,,137.06001578304,35.171156191479,13,0,99512
99513,179,名古屋市営地下鉄東山線,ナゴヤシエイチカテツヒガシヤマセン,名古屋市営地下鉄東山線,FFCC00,菜種色,,136.92263373615,35.169140332448,12,0,99513
99514,179,名古屋市営地下鉄名城線,ナゴヤシエイチカテツメイジョウセン,名古屋市営地下鉄名城線,9B74C1,藤色,,136.93289743917,35.160543716879,12,0,99514
99515,179,名古屋市営地下鉄名港線,ナゴヤシエイチカテツメイコウセン,名古屋市営地下鉄名港線,9B74C1,藤色,,136.88966853969,35.125101331329,13,0,99515
99516,179,名古屋市営地下鉄鶴舞線,ナゴヤシエイチカテツツルマイセン,名古屋市営地下鉄鶴舞線,04ACDD,水色,,136.93611688203,35.170990108991,12,0,99516
99517,179,名古屋市営地下鉄桜通線,ナゴヤシエイチカテツサクラドオリセン,名古屋市営地下鉄桜通線,FF0000,赤,,136.93822438628,35.140667554001,12,0,99517
99518,179,名古屋市営地下鉄上飯田線,ナゴヤシエイチカテツカミイイダセン,名古屋市営地下鉄上飯田線,FF66C4,桃色,,136.929713,35.201222076956,15,0,99518
99519,180,ピーチライナー,ピーチライナー,桃花台新交通,,,,136.95855506878,35.298233531053,13,2,99519
99520,181,豊橋鉄道渥美線,トヨハシテツドウアツミセン,豊橋鉄道渥美線,,,,137.33036072803,34.70354167766,12,0,99520
99521,181,豊橋鉄道東田本線,トヨハシテツドウアヅマダホンセン,豊橋鉄道東田本線,,,,137.40575456086,34.765006059324,14,0,99521
99522,181,豊橋鉄道運動公園前線,トヨハシテツドウウンドウコウエンマエセン,豊橋鉄道運動公園前線,,,,137.42205658466,34.761869844585,16,2,99522
99523,182,ゆとりーとライン,ユトリートライン,ガイドウェイバス志段味線,,,,136.96119786773,35.205581232272,13,0,99523
99524,183,明知鉄道明知線,アケチテツドウアケチセン,明知鉄道明知線,,,,137.41201254923,35.382803041356,12,0,99524
99525,184,長良川鉄道越美南線,ナガラガワテツドウエツミナンセン,長良川鉄道越美南線,,,,136.92720763621,35.710076639798,10,0,99525
99526,185,樽見鉄道樽見線,タルミテツドウタルミセン,樽見鉄道樽見線,,,,136.62831882052,35.515245938695,11,0,99526
99528,186,三岐鉄道三岐線,サンギテツドウサンギセン,三岐鉄道三岐線,,,,136.54413602317,35.087472444993,11,0,99528
99529,186,三岐鉄道北勢線,サンギテツドウホクセイセン,三岐鉄道北勢線,,,,136.59849844273,35.094626678729,12,0,99529
99530,187,伊勢鉄道伊勢線,イセテツドウイセセン,伊勢鉄道伊勢線,,,,136.55236578203,34.833916164216,12,0,99530
99531,188,伊賀鉄道伊賀線,イガテツドウイガセン,伊賀鉄道伊賀線,,,,136.13962606612,34.733360528718,12,0,99531
99532,189,養老鉄道養老線,ヨウロウテツドウヨウロウセン,養老鉄道養老線,,,,136.62239938636,35.265960092875,11,0,99532
99601,190,近江鉄道本線,オウミテツドウホンセン,近江鉄道本線,,,,136.21097576145,35.155042485373,10,0,99601
99602,190,近江鉄道多賀線,オウミテツドウタガセン,近江鉄道多賀線,,,,136.26770142326,35.233252609383,14,0,99602
99603,190,近江鉄道八日市線,オウミテツドウヨウカイチセン,近江鉄道八日市線,,,,136.15042189411,35.110963744067,13,0,99603
99604,191,信楽高原鐵道信楽線,シガラキコウゲンテツドウシガラキセン,信楽高原鐵道信楽線,,,,136.09384466406,34.913168649136,12,0,99604
99605,192,嵯峨野観光線,サガノカンコウセン,嵯峨野観光線,,,,135.65168439551,35.021588141529,12,0,99605
99606,193,叡山電鉄叡山本線,エイザンデンテツエイザンホンセン,叡山電鉄叡山本線,,,,135.79087965808,35.050004221782,13,0,99606
99607,193,叡山電鉄鞍馬線,エイザンデンテツクラマセン,叡山電鉄鞍馬線,,,,135.7789773958,35.086168813684,13,0,99607
99608,194,宮福線,ミヤフクセン,宮福線,,,,135.1450786402,35.426650607346,11,0,99608
99609,194,宮豊線,ミヤトヨセン,宮豊線,,,,135.02146714367,35.58009666032,10,0,99609
99653,194,宮舞線,ミヤマイセン,宮舞線,,,,135.26547905523,35.499724785792,11,0,99609
99610,195,京都市営地下鉄烏丸線,キョウトシエイチカテツカラスマセン,京都市営地下鉄烏丸線,,,,135.76556730479,35.016333541091,12,0,99610
99611,195,京都市営地下鉄東西線,キョウトシエイチカテツトウザイセン,京都市営地下鉄東西線,,,,135.76612153489,34.979171078484,12,0,99611
99612,196,京福電鉄嵐山本線,ケイフクデンテツアラシヤマホンセン,京福電鉄嵐山本線,,,,135.71025779774,35.012713496927,13,0,99612
99613,196,京福電鉄北野線,ケイフクデンテツキタノセン,京福電鉄北野線,,,,135.71240194707,35.025937048312,14,0,99613
99614,197,北大阪急行電鉄,キタオオサカキュウコウデンテツ,北大阪急行電鉄,,,,135.49546160449,34.789927239204,12,0,99614
99616,198,泉北高速鉄道線,センボクコウソクテツドウセン,泉北高速鉄道線,,,,135.48923516667,34.509277558938,12,0,99616
99617,199,水間鉄道水間線,ミズマテツドウミズマセン,水間鉄道水間線,,,,135.36913312695,34.428011288824,13,0,99617
99618,249,大阪メトロ御堂筋線,オオサカメトロミドウスジセン,高速電気軌道第1号線,e5171f,臙脂,,135.51183765508,34.674645463965,11,0,99618
99619,249,大阪メトロ谷町線,オオサカメトロタニマチセン,高速電気軌道第2号線,522886,京紫,,135.55273192871,34.675671078573,12,0,99619
99620,249,大阪メトロ四つ橋線,オオサカメトロヨツバシセン,高速電気軌道第3号線,0078ba,縹,,135.4936511092,34.657919959217,13,0,99620
99621,249,大阪メトロ中央線,オオサカメトロチュウオウセン,高速電気軌道第4号線,019a66,緑,,135.4957467936,34.667773493933,12,0,99621
99622,249,大阪メトロ千日前線,オオサカメトロセンニチマエセン,高速電気軌道第5号線,e44d93,紅梅,,135.5153001746,34.676715098117,13,0,99622
99623,249,大阪メトロ堺筋線,オオサカメトロサカイスジセン,高速電気軌道第6号線,814721,マルーン,,135.50830001377,34.677623115531,13,0,99623
99624,249,大阪メトロ長堀鶴見緑地線,オオサカメトロナガホリツルミリョクチセン,高速電気軌道第7号線,a9cc51,萌黄,,135.53824562069,34.69274887971,12,0,99624
99652,249,大阪メトロ今里筋線,オオサカメトロイマザトスジセン,高速電気軌道第8号線,ee7b1a,柑子,,135.55022387735,34.717781921555,13,0,99624
99625,249,大阪メトロ南港ポートタウン線,オオサカメトロナンコウポートタウンセン,大阪市高速電気軌道南港ポートタウン線,00a0de,セルリアンブルー,,135.44093093232,34.628381862008,13,0,99625
99626,201,大阪モノレール線,オオサカモノレールセン,大阪モノレール線,5058C3,青,,135.52449542857,34.789061357143,12,0,99626
99627,201,大阪モノレール彩都線,オオサカモノレールサイトセン,国際文化公園都市線,5058C3,青,,135.52708881797,34.830775671316,13,0,99627
99628,202,阪堺電軌上町線,ハンカイデンキウエマチセン,阪堺電軌上町線,083388,紺,,135.50418701829,34.627457948724,14,0,99628
99629,202,阪堺電軌阪堺線,ハンカイデンキハンカイセン,阪堺電軌阪堺線,008947,緑,,135.48094140579,34.598870279166,12,0,99629
99630,203,神戸高速東西線,コウベコウソクトウザイセン,神戸高速東西線,2560A8,青,,135.17274029102,34.677956663211,13,0,99630
99631,203,神戸高速南北線,コウベコウソクナンボクセン,神戸高速南北線,2560A8,青,,135.16738643121,34.677884628806,16,0,99631
99632,204,有馬線,アリマセン,神鉄有馬線,D53924,朱,,135.18505692567,34.752459971457,12,0,99632
99633,204,三田線,サンダセン,神鉄三田線,D53924,朱,,135.22213786348,34.850098613062,12,0,99633
99634,204,公園都市線,コウエントシセン,神鉄公園都市線,D53924,朱,,135.20684257405,34.89567763884,13,0,99634
99635,204,粟生線,アオセン,神鉄粟生線,D53924,朱,,135.01903507246,34.794565058363,11,0,99635
99636,211,北神線,ホクシンセン,神戸市営地下鉄北神線,D59A00,ゴールド,,135.17142,34.761691,12,0,99636
99637,206,山陽電鉄本線,サンヨウデンテツホンセン,山陽電鉄本線,F45757,赤,,134.88414166679,34.747293594959,10,0,99637
99638,206,山陽電鉄網干線,サンヨウデンテツアボシセン,山陽電鉄網干線,F45757,赤,,134.62899303704,34.796193571429,13,0,99638
99615,207,能勢電鉄妙見線,ノセデンテツミョウケンセン,能勢電鉄妙見線,,,,135.42379891801,34.872305222945,12,0,99640
99640,207,能勢電鉄日生線,ノセデンテツニッセイセン,能勢電鉄日生線,B72142,あずき,,135.402694,34.900812803779,14,0,99640
99642,208,三木鉄道三木線,ミキテツドウミキセン,三木鉄道三木線,009CFF,水色,,134.93909084126,34.798604666545,13,2,99642
99643,209,北条鉄道北条線,ホウジョウテツドウホウジョウセン,北条鉄道北条線,7564D3,青紫,,134.86388578711,34.894978879381,12,0,99643
99644,210,智頭急行智頭線,チズキュウコウチズセン,智頭急行智頭線,000099,紺,,134.32681277511,35.09441854421,10,0,99644
99645,211,神戸市営地下鉄西神線,コウベシエイチカテツセイシンセン,神戸市営地下鉄西神線,01AF98,緑,,135.06888940733,34.683072416677,12,0,99645
99646,211,神戸市営地下鉄山手線,コウベシエイチカテツヤマテセン,神戸市営地下鉄山手線,01AF98,緑,,135.17147444775,34.68032212271,13,0,99646
99647,211,夢かもめ,ユメカモメ,神戸市営地下鉄海岸線,0388C0,青,,135.16885991797,34.670659049227,13,0,99647
99648,212,ポートライナー,ポートライナー,神戸新交通ポートアイランド線,FAA11C,オレンジ,,135.21260397884,34.670333538698,13,0,99648
99649,212,六甲ライナー,ロッコウライナー,神戸新交通六甲アイランド線,1FCB9F,エメラルド,,135.26778466667,34.702989444166,14,0,99649
99650,213,紀州鉄道線,キシュウテツドウセン,紀州鉄道線,081042,紺,,135.15612553757,33.895428111877,14,0,99650
99651,214,貴志川線,キシガワセン,和歌山電鐵貴志川線,DA381B,赤,,135.24080185449,34.229286681085,12,0,99651
99701,215,若桜線,ワカサセン,若桜鉄道若桜線,,,,134.30236431218,35.378991666667,12,0,99701
99702,216,北松江線,キタマツエセン,一畑電車北松江線,,,,132.89720223828,35.457747369699,11,0,99702
99703,216,大社線,タイシャセン,一畑電車大社線,,,,132.73028389102,35.389565006844,12,0,99703
99704,217,水島本線,ミズシマホンセン,水島臨海鉄道水島本線,,,,133.74785991377,34.564207353492,13,0,99704
99705,218,井原線,イバラセン,井原鉄道井原線,,,,133.5574914487,34.61669576109,11,0,99705
99706,219,東山線,ヒガシヤマセン,岡山電軌東山本線,,,,133.93158823069,34.66244005775,15,0,99706
99707,219,清輝橋線,セイキバシセン,岡山電軌清輝橋線,,,,133.92400867195,34.658570803527,15,0,99707
99708,220,スカイレールみどり坂線,スカイレールミドリザカセン,広島短距離交通瀬野線,,,,132.59332400529,34.427458637787,15,2,99708
99709,221,アストラムライン,アストラムライン,広島高速交通広島新交通1号線,,,,132.43358230148,34.439099126739,12,0,99709
99710,222,広電１号線(宇品線),ヒロデンイチゴウセン,広電１号線(宇品線),,,,132.46353223281,34.380078030579,13,0,99710
99711,222,広電２号線(宮島線),ヒロデンニゴウセン,広電２号線(宮島線),,,,132.38582722415,34.371507218076,12,0,99711
99712,222,広電３号線,ヒロデンサンゴウセン,広電３号線,,,,132.45244206002,34.381522498002,13,0,99712
99713,222,広電５号線(皆実線),ヒロデンゴゴウセン,広電５号線(皆実線),,,,132.46766591799,34.378140550013,13,0,99713
99714,222,広電６号線(江波線),ヒロデンロクゴウセン,広電６号線(江波線),,,,132.45429202036,34.388572285071,14,0,99714
99715,222,広電７号線,ヒロデンナナゴウセン,広電７号線,,,,132.4529,34.383,13,0,99715
99716,222,広電８号線(横川線),ヒロデンハチゴウセン,広電８号線(横川線),,,,132.44276496692,34.391156291997,14,0,99716
99717,222,広電９号線(白島線),ヒロデンキュウゴウセン,広電９号線(白島線),,,,132.46416669312,34.400808717675,15,0,99717
99718,223,錦川清流線,ニシキガワセイリュウセン,錦川鉄道錦川清流線,,,,132.05904670769,34.207445951088,11,0,99718
99801,224,阿波室戸シーサイドライン,アワムロトシーサイドライン,阿佐海岸鉄道阿佐東線,,,,134.31125740739,33.573504169616,13,0,99801
99802,225,琴電琴平線,コトデンコトヒラセン,琴電琴平線,,,,133.96214399465,34.262127612871,11,0,99802
99803,225,琴電長尾線,コトデンナガオセン,琴電長尾線,,,,134.09736721951,34.307010048819,12,0,99803
99804,225,琴電志度線,コトデンシドセン,琴電志度線,,,,134.11657160352,34.345151934388,12,0,99804
99805,226,伊予鉄道郡中線,イヨテツドウグンチュウセン,伊予鉄道郡中線,,,,132.72982015349,33.80853562435,12,0,99805
99806,226,伊予鉄道高浜線,イヨテツドウタカハマセン,伊予鉄道高浜線,,,,132.72769552695,33.863703568848,13,0,99806
99807,226,伊予鉄道横河原線,イヨテツドウヨコガワラセン,伊予鉄道横河原線,,,,132.82353333015,33.812592128265,12,0,99807
99808,226,伊予鉄道環状線（１系統）,イヨテツドウカンジョウセン,伊予鉄道１系統,,,,132.76223714813,33.844895617528,14,0,99808
99809,226,伊予鉄道環状線（２系統）,イヨテツドウカンジョウセン,伊予鉄道２系統,,,,132.76266630157,33.843755025377,15,0,99809
99810,226,伊予鉄道市駅線（３系統）,イヨテツドウシエキセン,伊予鉄道３系統,,,,132.77226810678,33.843001741993,14,0,99810
99811,226,伊予鉄道松山駅前線（５系統）,イヨテツドウマツヤマエキマエセン,伊予鉄道５系統,,,,132.76862486243,33.843611419009,14,0,99811
99812,226,伊予鉄道本町線（６系統）,イヨテツドウホンマチセン,伊予鉄道６系統,,,,132.76946364551,33.84808660243,14,0,99812
99814,227,中村線,ナカムラセン,土佐くろしお鉄道中村線,,,,133.04988572058,33.094670234743,11,0,99814
99815,227,宿毛線,スクモセン,土佐くろしお鉄道宿毛線,,,,132.83105449805,32.962600483511,11,0,99815
99816,227,ごめん・なはり線,ゴメン・ナハリセン,土佐くろしお鉄道ごめん・なはり線,,,,133.82521650898,33.515977121911,11,0,99816
99817,228,ごめん線,ゴメンセン,土佐電鉄ごめん線,,,,133.59933624726,33.568628587669,13,0,99817
99818,228,伊野線,イノセン,土佐電鉄伊野線,,,,133.49190174651,33.552422392092,12,0,99818
99819,228,桟橋線,サンバシセン,土佐電鉄桟橋線,,,,133.54655881818,33.552468411519,14,0,99819
99901,229,甘木鉄道,アマギテツドウ,甘木鉄道,,,,130.58818008176,33.416179925604,12,0,99901
99902,230,伊田線,イダセン,平成筑豊鉄道伊田線,,,,130.76043661159,33.700854533802,12,0,99902
99903,230,糸田線,イトダセン,平成筑豊鉄道糸田線,,,,130.78873194182,33.659068805649,13,0,99903
99904,230,田川線,タガワセン,平成筑豊鉄道田川線,,,,130.90100372119,33.666047994427,12,0,99904
99928,230,門司港レトロ観光線,モジコウレトロカンコウセン,平成筑豊鉄道門司港レトロ観光線,,,,130.96594879895,33.95269437674,15,0,99904
99905,231,福岡市営地下鉄空港線,フクオカシエイチカテツクウコウセン,福岡市営地下鉄空港線,,,,130.38381284938,33.593568374055,12,0,99905
99906,231,福岡市営地下鉄箱崎線,フクオカシエイチカテツハコザキセン,福岡市営地下鉄箱崎線,,,,130.41711626984,33.614826570191,14,0,99906
99907,231,福岡市営地下鉄七隈線,フクオカシエイチカテツナナクマセン,福岡市営地下鉄七隈線,,,,130.36678935449,33.567082700162,13,0,99907
99908,232,北九州モノレール,キタキュウシュウモノレール,北九州高速鉄道,,,,130.87351064874,33.856095199902,13,0,99908
99909,233,筑豊電気鉄道線,チクホウデンキテツドウセン,筑豊電気鉄道線,,,,130.73198422221,33.824255998634,12,0,99909
99910,234,西九州線(有田～伊万里),ニシキュウシュウセン,松浦鉄道西九州線(有田～伊万里),,,,129.86792193705,33.228860967385,12,0,99910
99911,234,西九州線(伊万里～佐世保),ニシキュウシュウセン,松浦鉄道西九州線(伊万里～佐世保),,,,129.73463981346,33.283372053827,11,0,99911
99912,235,島原鉄道線,シマバラテツドウセン,島原鉄道線,,,,130.19199456366,32.768274882916,11,0,99912
99913,236,長崎電軌１系統,ナガサキデンキイチゴウケイトウ,長崎電軌１系統,,,,129.86838866057,32.768729040517,13,0,99913
99914,236,長崎電軌３系統,ナガサキデンキサンゴウケイトウ,長崎電軌３系統,,,,129.87054078572,32.768162520725,13,0,99914
99915,236,長崎電軌４系統,ナガサキデンキヨンゴウケイトウ,長崎電軌４系統,,,,129.88416479895,32.7476046,15,0,99915
99916,236,長崎電軌５系統,ナガサキデンキゴゴウケイトウ,長崎電軌５系統,,,,129.88161026192,32.745533918802,14,0,99916
99917,237,熊本電鉄本線,クマモトデンテツホンセン,熊本電鉄本線,,,,130.72980683271,32.850622245737,13,0,99917
99918,237,熊本電鉄上熊本線,クマモトデンテツカミクマモトセン,熊本電鉄上熊本線,,,,130.70907904761,32.823570912231,14,0,99918
99919,238,高森線,タカモリセン,南阿蘇鉄道高森線,,,,131.04512613594,32.843939566162,12,0,99919
99920,239,湯前線,ユノマエセン,くま川鉄道湯前線,,,,130.88113566406,32.239143642857,11,0,99920
99921,240,肥薩おれんじ鉄道線,ヒサツオレンジテツドウセン,肥薩おれんじ鉄道線,,,,130.39137274079,32.168417968355,10,0,99921
99922,241,熊本市電Ａ系統,クマモトシデンエーライン,熊本市電Ａ系統,,,,130.72211009871,32.791042195521,13,0,99922
99923,241,熊本市電Ｂ系統,クマモトシデンビーライン,熊本市電Ｂ系統,,,,130.72034257275,32.797989793968,13,0,99923
99925,242,鹿児島市電１系統,カゴシマシデンイチケイトウ,鹿児島市電１系統,,,,130.54314217985,31.563710494243,13,0,99925
99926,242,鹿児島市電２系統,カゴシマシデンニケイトウ,鹿児島市電２系統,,,,130.55071839102,31.581543618004,14,0,99926
99927,243,ゆいレール,ユイレール,沖縄都市モノレール線,,,,127.68810912275,26.21229379344,13,0,99927
